[
    {
      "id": 123,
      "title": "Старый Замок",
      "website": "www.google.com",
      "image":
      "https://disk.2gis.com/rubricator/eat594ef1a575533c3c1b558ee032dad50c.svg",
      "photo":[
        "https://lh5.googleusercontent.com/p/AF1QipM1Ji6UPfyHi-dw42POTSCv6-0ncfkn4joK9xLe=w408-h306-k-no",
        "https://lh5.googleusercontent.com/p/AF1QipM1Ji6UPfyHi-dw42POTSCv6-0ncfkn4joK9xLe=w408-h306-k-no",
        "https://sun9-54.userapi.com/impg/sVK_dPzRrW81jBJW5lWFiXDQihi_apKupGTf5g/GnucPRcIYYk.jpg?size=1280x960&quality=95&sign=bf182c289fcf8aaf5f0f7b85ef21d97c&type=album",
        "https://cs8.pikabu.ru/post_img/big/2016/01/26/5/14537883711750197.png"
      ],
      "fraction": "Магазин",
      "address": [
        {
          "id": 12345,
          "country": "Finland",
          "city": "Helsinki",
          "street": "Yliopistonkatu 4",
          "address": "залупино 4",
          "postcode": "00101",
          "telephone": "73822530339",
          "lat": "56.482105",
          "lng": "84.950928"
        }
      ]
    },
    {
      "id": 1234,
      "title": "Бургер Кинг",
      "website": "www.google.com",
      "image":
        "https://disk.2gis.com/rubricator/eat594ef1a575533c3c1b558ee032dad50c.svg",
      "address": [
        {
          "id": 12346,
          "country": "Finland",
          "city": "Helsinki",
          "street": "Yliopistonkatu 4",
          "postcode": "00101",
          "lat": "56.478526",
          "lng": "84.949499"
        }
      ]
    },
    {
      "id": 12345,
      "title": "Бургер Кинг",
      "website": "www.google.com",
      "image":
        "https://disk.2gis.com/rubricator/eat594ef1a575533c3c1b558ee032dad50c.svg",
      "address": [
        {
          "id": 123467,
          "country": "Finland",
          "city": "Helsinki",
          "street": "Yliopistonkatu 4",
          "postcode": "00101",
          "lat": "56.473426",
          "lng": "84.949499"
        }
      ]
    }
    
  ]
  